places = [{"placeNames":"Florence","descriptions":"Galleria dell' Academia.","latitude":43.7696,"longitude":-11.2558},
{"placeNames":"Rome","descriptions":"Visited Galleria Borghese.","latitude":41.9028,"longitude":-12.4964},
{"placeNames":"Amalfi ","descriptions":"Relaxed on the coast.","latitude":40.634,"longitude":-14.6027},
{"placeNames":"Venice","descriptions":"Went on a gondola ride.","latitude":45.4408,"longitude":-12.3155},
{"placeNames":"Granada","descriptions":"    Visited  Alhambra.","latitude":37.1773,"longitude":-3.5986},
{"placeNames":"Madrid","descriptions":" Museo Nacional Del Prado.","latitude":40.3851,"longitude":-3.7038},
{"placeNames":"Barcelona","descriptions":"Visited Sagrada Familia","latitude":41.3851,"longitude":-2.1734},
{"placeNames":"Belguim","descriptions":"St Bavo's Cathedral Ghent.","latitude":50.5039,"longitude":-4.4699},
{"placeNames":"Portuagal","descriptions":"Spent a day in Lisbon","latitude":39.3999,"longitude":-8.2245},
{"placeNames":"Prague","descriptions":"Visited St. Vitus Cathedral.","latitude":50.0755,"longitude":-14.4378},
{"placeNames":"Budapest","descriptions":"Went to the ChainBridge.","latitude":45.4979,"longitude":-9.0402},
{"placeNames":"Vienna","descriptions":"Visited Hofburg Palace.","latitude":48.2082,"longitude":-16.3738},
{"placeNames":"Luxembourg","descriptions":"        Visited  Mudam.","latitude":49.6116,"longitude":-6.1319},
{"placeNames":"Milan","descriptions":"          Teatro alla Scala.","latitude":45.4654,"longitude":-9.1859},
{"placeNames":"Liverpool","descriptions":"             World Museum","latitude":53.4084,"longitude":-2.9916},
{"placeNames":"Versailles","descriptions":"      Palace of Versailles.","latitude":48.8049,"longitude":-2.1204},
{"placeNames":"London","descriptions":"         Tower of London","latitude":51.5074,"longitude":-0.1278},
{"placeNames":"Vatican","descriptions":"Sistine Chapel","latitude":41.9029,"longitude":-12.4534},
{"placeNames":"Paris","descriptions":"The Louvre","latitude":48.8566,"longitude":-2.3522},
{"placeNames":"Normandy","descriptions":"Visited D Day memorial","latitude":48.8799,"longitude":-0.1713}]
